{"response":{"body":{"totalCount":"308","items":{"item":[{"sido":"부산","confirm_date":"2020-12-31","address":"부산 해운대구 해운대해변로 140","sigungu":"해운대구","tel":"051-714-8701","target":"외부인","lng":"129.1464910","place":"1층","sj":"홈플러스해운대점","lat":"35.15839725","father":"가능"},{"sido":"부산","confirm_date":"2020-12-31","address":"부산 해운대구 해운대로349번길 13","sigungu":"해운대구","tel":"051-749-8115","target":"외부인","lng":"129.1356550","place":"2층","sj":"국민건강보험공단해운대지사","lat":"35.17238075","father":"가능"},{"sido":"부산","confirm_date":"2020-12-31","address":"부산 해운대구 센텀남대로 59","sigungu":"해운대구","tel":"051-730-2500","target":"외부인","lng":"129.1310752","place":"6층 유아휴게실","sj":"롯데백화점센텀시티점","lat":"35.16985471","father":"가능"},{"sido":"부산","confirm_date":"2020-12-31","address":"부산 해운대구 반송로 853","sigungu":"해운대구","tel":"051-749-6975","target":"외부인","lng":"129.1478949","place":"1층","sj":"반송보건지소","lat":"35.23004354","father":"가능"},{"sido":"부산","confirm_date":"2020-12-31","address":"부산 해운대구 APEC로 55","sigungu":"해운대구","tel":"051-740-7327","target":"외부인","lng":"129.1360149","place":"제1전시장 1층","sj":"벡스코제1전시장","lat":"35.16906028","father":"가능"},{"sido":"부산","confirm_date":"2020-12-31","address":"부산 해운대구 해운대로 지하 522 (우동, 부산지하철 동백역)","sigungu":"해운대구","tel":"051-678-6204","target":"외부인","lng":"129.1486908","place":"고객센터 내","sj":"부산교통공사동백역","lat":"35.16106251","father":"가능"},{"sido":"부산","confirm_date":"2020-12-31","address":"부산 해운대구 반송로 917","sigungu":"해운대구","tel":"051-678-6412","target":"외부인","lng":"129.1538058","place":"게이트 안쪽","sj":"부산교통공사동부산대학역","lat":"35.23242097","father":"가능"},{"sido":"부산","confirm_date":"2020-12-31","address":"부산 해운대구 반송로 550","sigungu":"해운대구","tel":"051-678-6409","target":"외부인","lng":"129.1240186","place":"하선 승강장 입구 옆","sj":"부산교통공사반여농산물시장역","lat":"35.21775678","father":"가능"},{"sido":"부산","confirm_date":"2020-12-31","address":"부산 해운대구 해운대로 지하 396 (우동, 부산지하철 시립미술관역)","sigungu":"해운대구","tel":"051-678-6205","target":"외부인","lng":"129.1388776","place":"고객센터 내","sj":"부산교통공사벡스코역","lat":"35.16888915","father":"가능"},{"sido":"부산","confirm_date":"2020-12-31","address":"부산 해운대구 석대천로 121","sigungu":"해운대구","tel":"051-678-6410","target":"외부인","lng":"129.1368307","place":"고객센터 옆","sj":"부산교통공사석대역","lat":"35.21811473","father":"가능"}]},"pageNo":"1","numOfRows":"10"},"header":{"resultMsg":"NORMAL_CODE","resultCode":"00"}}}